{"type": "FeatureCollection", "features": [{"type": "Feature", "geometry": {"type": "Point", "coordinates": [1.009594, 46.752925]}, "properties": {"longitude": 1.009594277155155, "latitude": 46.75292522151258, "Company Name": "IMERYS SA", "ISIN": "", "Name": "Ceramic Tournon St Martin", "Asset type": "Mine", "popup-text": "Test 1", "Comodity": "Kaolin", "Production": 10000, "Unit": "t", "Date": "", "Water": 0, "Biodiv": 0, "Social": 1, "Contro": 1, "marker-symbol": "https://raw.githubusercontent.com/eheurard/wikibiodi/main/Mine.png"}}, {"type": "Feature", "geometry": {"type": "Point", "coordinates": [-46.230328, -23.530711]}, "properties": {"longitude": -46.23032774094936, "latitude": -23.53071056232951, "Company Name": "IMERYS SA", "ISIN": "", "Name": "Bras cuba site", "Asset type": "Mine", "popup-text": "Test 2", "Comodity": "Kaolin", "Production": 10001, "Unit": "t", "Date": "", "Water": 3, "Biodiv": 1, "Social": 0, "Contro": 1, "marker-symbol": "https://raw.githubusercontent.com/eheurard/wikibiodi/main/Mine.png"}}, {"type": "Feature", "geometry": {"type": "Point", "coordinates": [17.318602, 47.412119]}, "properties": {"longitude": 17.3186021098019, "latitude": 47.41211855596702, "Company Name": "IMERYS SA", "ISIN": "", "Name": "Bentonite Egyh\u00e1zaskesz\u0151", "Asset type": "Mine", "popup-text": "Test 3", "Comodity": "Kaolin", "Production": 10002, "Unit": "t", "Date": "", "Water": 1, "Biodiv": 0, "Social": 0, "Contro": 0, "marker-symbol": "https://raw.githubusercontent.com/eheurard/wikibiodi/main/Mine.png"}}, {"type": "Feature", "geometry": {"type": "Point", "coordinates": [-88.65069, 36.222771]}, "properties": {"longitude": -88.65068992791713, "latitude": 36.22277088429165, "Company Name": "IMERYS SA", "ISIN": "", "Name": "Clay Gleason", "Asset type": "Mine", "popup-text": "Test 4", "Comodity": "Kaolin", "Production": 10003, "Unit": "t", "Date": "", "Water": 0, "Biodiv": 3, "Social": 2, "Contro": 2, "marker-symbol": "https://raw.githubusercontent.com/eheurard/wikibiodi/main/Mine.png"}}, {"type": "Feature", "geometry": {"type": "Point", "coordinates": [25.416882, 41.63138]}, "properties": {"longitude": 25.41688175362511, "latitude": 41.63138041416941, "Company Name": "IMERYS SA", "ISIN": "", "Name": "Bentonite Kardzhali", "Asset type": "Mine", "popup-text": "Test 5", "Comodity": "Kaolin", "Production": 10004, "Unit": "t", "Date": "", "Water": 2, "Biodiv": 0, "Social": 2, "Contro": 0, "marker-symbol": "https://raw.githubusercontent.com/eheurard/wikibiodi/main/Mine.png"}}, {"type": "Feature", "geometry": {"type": "Point", "coordinates": [98.684478, 9.94552]}, "properties": {"longitude": 98.68447809599348, "latitude": 9.945519840105904, "Company Name": "IMERYS SA", "ISIN": "", "Name": "Ceramic Ranong", "Asset type": "Mine", "popup-text": "Test 6", "Comodity": "Kaolin", "Production": 10005, "Unit": "t", "Date": "", "Water": 0, "Biodiv": 0, "Social": 0, "Contro": 3, "marker-symbol": "https://raw.githubusercontent.com/eheurard/wikibiodi/main/Mine.png"}}, {"type": "Feature", "geometry": {"type": "Point", "coordinates": [-3.636091, 50.57676]}, "properties": {"longitude": -3.636090822654396, "latitude": 50.57675956907875, "Company Name": "IMERYS SA", "ISIN": "", "Name": "Clay mine Devon", "Asset type": "Mine", "popup-text": "Test 7", "Comodity": "Kaolin", "Production": 10006, "Unit": "t", "Date": "", "Water": 0, "Biodiv": 1, "Social": 1, "Contro": 1, "marker-symbol": "https://raw.githubusercontent.com/eheurard/wikibiodi/main/Mine.png"}}, {"type": "Feature", "geometry": {"type": "Point", "coordinates": [99.429017, 17.960871]}, "properties": {"longitude": 99.42901671461127, "latitude": 17.96087142412219, "Company Name": "IMERYS SA", "ISIN": "", "Name": "Ceramic Lampang", "Asset type": "Mine", "popup-text": "Test 8", "Comodity": "Kaolin", "Production": 10007, "Unit": "t", "Date": "", "Water": 2, "Biodiv": 2, "Social": 0, "Contro": 2, "marker-symbol": "https://raw.githubusercontent.com/eheurard/wikibiodi/main/Mine.png"}}, {"type": "Feature", "geometry": {"type": "Point", "coordinates": [-100.083469, 25.664694]}, "properties": {"longitude": -100.0834692179353, "latitude": 25.66469422375872, "Company Name": "IMERYS SA", "ISIN": "", "Name": "Ceramics Monterrey", "Asset type": "Mine", "popup-text": "Test 9", "Comodity": "Kaolin", "Production": 10008, "Unit": "t", "Date": "", "Water": 2, "Biodiv": 0, "Social": 1, "Contro": 3, "marker-symbol": "https://raw.githubusercontent.com/eheurard/wikibiodi/main/Mine.png"}}, {"type": "Feature", "geometry": {"type": "Point", "coordinates": [-82.821933, 32.968565]}, "properties": {"longitude": -82.82193297753611, "latitude": 32.96856485003248, "Company Name": "IMERYS SA", "ISIN": "", "Name": "Kaolin Sandersville", "Asset type": "Mine", "popup-text": "Test 10", "Comodity": "Kaolin", "Production": 10009, "Unit": "t", "Date": "", "Water": 2, "Biodiv": 0, "Social": 2, "Contro": 2, "marker-symbol": "https://raw.githubusercontent.com/eheurard/wikibiodi/main/Mine.png"}}, {"type": "Feature", "geometry": {"type": "Point", "coordinates": [0.827413, 45.393436]}, "properties": {"longitude": 0.8274130820364608, "latitude": 45.39343597814854, "Company Name": "IMERYS SA", "ISIN": "", "Name": "Quartz Saint jean de Cole", "Asset type": "Mine", "popup-text": "Test 11", "Comodity": "Kaolin", "Production": 10010, "Unit": "t", "Date": "", "Water": 1, "Biodiv": 0, "Social": 3, "Contro": 2, "marker-symbol": "https://raw.githubusercontent.com/eheurard/wikibiodi/main/Mine.png"}}, {"type": "Feature", "geometry": {"type": "Point", "coordinates": [3.272554, 48.53526]}, "properties": {"longitude": 3.272554400818706, "latitude": 48.53526000348045, "Company Name": "IMERYS SA", "ISIN": "", "Name": "Provins mine", "Asset type": "Mine", "popup-text": "Test 12", "Comodity": "Kaolin", "Production": 10011, "Unit": "t", "Date": "", "Water": 2, "Biodiv": 2, "Social": 2, "Contro": 1, "marker-symbol": "https://raw.githubusercontent.com/eheurard/wikibiodi/main/Mine.png"}}, {"type": "Feature", "geometry": {"type": "Point", "coordinates": [-48.619519, -26.237584]}, "properties": {"longitude": -48.61951855319363, "latitude": -26.2375842783438, "Company Name": "IMERYS SA", "ISIN": "", "Name": "Sao Francisco do sul ?", "Asset type": "Mine", "popup-text": "Test 13", "Comodity": "Kaolin", "Production": 10012, "Unit": "t", "Date": "", "Water": 0, "Biodiv": 2, "Social": 1, "Contro": 0, "marker-symbol": "https://raw.githubusercontent.com/eheurard/wikibiodi/main/Mine.png"}}, {"type": "Feature", "geometry": {"type": "Point", "coordinates": [-2.103054, 50.651478]}, "properties": {"longitude": -2.10305449649329, "latitude": 50.65147815973754, "Company Name": "IMERYS SA", "ISIN": "", "Name": "Clay mine Dorset", "Asset type": "Mine", "popup-text": "Test 14", "Comodity": "Kaolin", "Production": 10013, "Unit": "t", "Date": "", "Water": 2, "Biodiv": 3, "Social": 2, "Contro": 1, "marker-symbol": "https://raw.githubusercontent.com/eheurard/wikibiodi/main/Mine.png"}}, {"type": "Feature", "geometry": {"type": "Point", "coordinates": [-2.117556, 47.308938]}, "properties": {"longitude": -2.117555796332625, "latitude": 47.30893832991956, "Company Name": "IMERYS SA", "ISIN": "", "Name": "Metalcasting Montoir de Bretagne", "Asset type": "Mine", "popup-text": "Test 15", "Comodity": "Kaolin", "Production": 10014, "Unit": "t", "Date": "", "Water": 1, "Biodiv": 1, "Social": 1, "Contro": 1, "marker-symbol": "https://raw.githubusercontent.com/eheurard/wikibiodi/main/Mine.png"}}, {"type": "Feature", "geometry": {"type": "Point", "coordinates": [-90.159571, 34.458212]}, "properties": {"longitude": -90.15957124749475, "latitude": 34.45821229798237, "Company Name": "IMERYS SA", "ISIN": "", "Name": "Clay Crenshaw", "Asset type": "Mine", "popup-text": "Test 16", "Comodity": "Kaolin", "Production": 10015, "Unit": "t", "Date": "", "Water": 2, "Biodiv": 1, "Social": 0, "Contro": 1, "marker-symbol": "https://raw.githubusercontent.com/eheurard/wikibiodi/main/Mine.png"}}, {"type": "Feature", "geometry": {"type": "Point", "coordinates": [37.369536, 47.595037]}, "properties": {"longitude": 37.36953609432685, "latitude": 47.59503663980684, "Company Name": "IMERYS SA", "ISIN": "", "Name": "Ceramics Volnovakha", "Asset type": "Mine", "popup-text": "Test 17", "Comodity": "Kaolin", "Production": 10016, "Unit": "t", "Date": "", "Water": 1, "Biodiv": 0, "Social": 0, "Contro": 2, "marker-symbol": "https://raw.githubusercontent.com/eheurard/wikibiodi/main/Mine.png"}}, {"type": "Feature", "geometry": {"type": "Point", "coordinates": [-3.468109, 47.727243]}, "properties": {"longitude": -3.468109371267197, "latitude": 47.72724332627528, "Company Name": "IMERYS SA", "ISIN": "", "Name": "Kaolin Lanvrian", "Asset type": "Mine", "popup-text": "Test 18", "Comodity": "Kaolin", "Production": 10017, "Unit": "t", "Date": "", "Water": 1, "Biodiv": 1, "Social": 2, "Contro": 3, "marker-symbol": "https://raw.githubusercontent.com/eheurard/wikibiodi/main/Mine.png"}}, {"type": "Feature", "geometry": {"type": "Point", "coordinates": [101.156746, 4.536323]}, "properties": {"longitude": 101.1567457241597, "latitude": 4.536323077944654, "Company Name": "IMERYS SA", "ISIN": "", "Name": "Calcium carbonate Ipoh", "Asset type": "Mine", "popup-text": "Test 19", "Comodity": "Kaolin", "Production": 10018, "Unit": "t", "Date": "", "Water": 3, "Biodiv": 3, "Social": 3, "Contro": 3, "marker-symbol": "https://raw.githubusercontent.com/eheurard/wikibiodi/main/Mine.png"}}, {"type": "Feature", "geometry": {"type": "Point", "coordinates": [2.953497, 46.180221]}, "properties": {"longitude": 2.953496857794846, "latitude": 46.1802205745181, "Company Name": "IMERYS SA", "ISIN": "", "Name": "Kaolin Beauvoir", "Asset type": "Mine", "popup-text": "Test 20", "Comodity": "Kaolin", "Production": 10019, "Unit": "t", "Date": "", "Water": 1, "Biodiv": 0, "Social": 1, "Contro": 0, "marker-symbol": "https://raw.githubusercontent.com/eheurard/wikibiodi/main/Mine.png"}}, {"type": "Feature", "geometry": {"type": "Point", "coordinates": [3.659402, 46.565258]}, "properties": {"longitude": 3.659401589797711, "latitude": 46.56525831894475, "Company Name": "IMERYS SA", "ISIN": "", "Name": "Ceramics Beaulon", "Asset type": "Mine", "popup-text": "Test 21", "Comodity": "Kaolin", "Production": 10020, "Unit": "t", "Date": "", "Water": 0, "Biodiv": 1, "Social": 1, "Contro": 2, "marker-symbol": "https://raw.githubusercontent.com/eheurard/wikibiodi/main/Mine.png"}}, {"type": "Feature", "geometry": {"type": "Point", "coordinates": [-82.89438, 33.019344]}, "properties": {"longitude": -82.89438038830872, "latitude": 33.01934393204237, "Company Name": "IMERYS SA", "ISIN": "", "Name": "Kaolin Sandersville 2", "Asset type": "Mine", "popup-text": "Test 22", "Comodity": "copper", "Production": 5000, "Unit": "t", "Date": "", "Water": 0, "Biodiv": 2, "Social": 1, "Contro": 3, "marker-symbol": "https://raw.githubusercontent.com/eheurard/wikibiodi/main/Mine.png"}}, {"type": "Feature", "geometry": {"type": "Point", "coordinates": [27.282359, -24.703201]}, "properties": {"longitude": 27.28235909380484, "latitude": -24.70320116372945, "Company Name": "IMERYS SA", "ISIN": "", "Name": "Rhino", "Asset type": "Mine", "popup-text": "Test 23", "Comodity": "diamond", "Production": 2000, "Unit": "t", "Date": "", "Water": 3, "Biodiv": 1, "Social": 2, "Contro": 3, "marker-symbol": "https://raw.githubusercontent.com/eheurard/wikibiodi/main/Mine.png"}}, {"type": "Feature", "geometry": {"type": "Point", "coordinates": [-47.169645, -22.962734]}, "properties": {"longitude": -47.16964477081562, "latitude": -22.96273413009343, "Company Name": "IMERYS SA", "ISIN": "", "Name": "Itatex site", "Asset type": "Mine", "popup-text": "Test 24", "Comodity": "", "Production": "", "Unit": "", "Date": "", "Water": 3, "Biodiv": 1, "Social": 0, "Contro": 3, "marker-symbol": "https://raw.githubusercontent.com/eheurard/wikibiodi/main/Mine.png"}}, {"type": "Feature", "geometry": {"type": "Point", "coordinates": [2.221718, 47.335552]}, "properties": {"longitude": 2.221718337793912, "latitude": 47.33555240442513, "Company Name": "IMERYS SA", "ISIN": "", "Name": "Ceramic Nan\u00e7ay", "Asset type": "Mine", "popup-text": "Test 25", "Comodity": "", "Production": "", "Unit": "", "Date": "", "Water": 2, "Biodiv": 1, "Social": 0, "Contro": 1, "marker-symbol": "https://raw.githubusercontent.com/eheurard/wikibiodi/main/Mine.png"}}, {"type": "Feature", "geometry": {"type": "Point", "coordinates": [1.346336, 44.608629]}, "properties": {"longitude": 1.34633614012086, "latitude": 44.60862940967148, "Company Name": "IMERYS SA", "ISIN": "", "Name": "Quartz Thedirac", "Asset type": "Mine", "popup-text": "Test 26", "Comodity": "", "Production": "", "Unit": "", "Date": "", "Water": 2, "Biodiv": 3, "Social": 0, "Contro": 0, "marker-symbol": "https://raw.githubusercontent.com/eheurard/wikibiodi/main/Mine.png"}}, {"type": "Feature", "geometry": {"type": "Point", "coordinates": [-2.44567, 53.73075]}, "properties": {"longitude": -2.4456700321499625, "latitude": 53.730750001841585, "Company Name": "AKZO NOBEL NV", "ISIN": "", "Name": "Blackburn AkzoNobel Industrial Coatings Ltd", "Asset type": "Factory", "popup-text": "", "Comodity": "", "Production": "", "Unit": "", "Date": "", "Water": 0, "Biodiv": 2, "Social": 3, "Contro": 1, "marker-symbol": "https://raw.githubusercontent.com/eheurard/wikibiodi/main/factory.png"}}, {"type": "Feature", "geometry": {"type": "Point", "coordinates": [-8.474488, 51.911809]}, "properties": {"longitude": -8.474487622032836, "latitude": 51.911809376268415, "Company Name": "AKZO NOBEL NV", "ISIN": "", "Name": "Cork Decorative Paint Manufacturing", "Asset type": "Factory", "popup-text": "", "Comodity": "", "Production": "", "Unit": "", "Date": "", "Water": 3, "Biodiv": 3, "Social": 0, "Contro": 3, "marker-symbol": "https://raw.githubusercontent.com/eheurard/wikibiodi/main/factory.png"}}, {"type": "Feature", "geometry": {"type": "Point", "coordinates": [-1.53608, 55.16804]}, "properties": {"longitude": -1.5360799811482764, "latitude": 55.16803999206425, "Company Name": "AKZO NOBEL NV", "ISIN": "", "Name": "Decorative Paint Manufacturing", "Asset type": "Factory", "popup-text": "", "Comodity": "", "Production": "", "Unit": "", "Date": "", "Water": 3, "Biodiv": 1, "Social": 2, "Contro": 3, "marker-symbol": "https://raw.githubusercontent.com/eheurard/wikibiodi/main/factory.png"}}, {"type": "Feature", "geometry": {"type": "Point", "coordinates": [-3.02069, 53.23637]}, "properties": {"longitude": -3.0206899638384073, "latitude": 53.23637001367118, "Company Name": "AKZO NOBEL NV", "ISIN": "", "Name": "Deeside\nIndustrial Coatings Manufacturing", "Asset type": "Factory", "popup-text": "", "Comodity": "", "Production": "", "Unit": "", "Date": "", "Water": 0, "Biodiv": 0, "Social": 0, "Contro": 1, "marker-symbol": "https://raw.githubusercontent.com/eheurard/wikibiodi/main/factory.png"}}, {"type": "Feature", "geometry": {"type": "Point", "coordinates": [-1.25139, 51.62253]}, "properties": {"longitude": -1.2513899808988924, "latitude": 51.62252998520739, "Company Name": "AKZO NOBEL NV", "ISIN": "", "Name": "Didcot\nAkzoNobel Coatings Limited", "Asset type": "Factory", "popup-text": "", "Comodity": "", "Production": "", "Unit": "", "Date": "", "Water": 2, "Biodiv": 0, "Social": 3, "Contro": 0, "marker-symbol": "https://raw.githubusercontent.com/eheurard/wikibiodi/main/factory.png"}}, {"type": "Feature", "geometry": {"type": "Point", "coordinates": [-2.3516, 53.4049]}, "properties": {"longitude": -2.3516000166310107, "latitude": 53.40489999549692, "Company Name": "AKZO NOBEL NV", "ISIN": "", "Name": "Dulux Decorator Centre Support Centre", "Asset type": "Factory", "popup-text": "", "Comodity": "", "Production": "", "Unit": "", "Date": "", "Water": 2, "Biodiv": 2, "Social": 0, "Contro": 0, "marker-symbol": "https://raw.githubusercontent.com/eheurard/wikibiodi/main/factory.png"}}, {"type": "Feature", "geometry": {"type": "Point", "coordinates": [-1.55808, 54.95705]}, "properties": {"longitude": -1.5580799624128758, "latitude": 54.95705001287024, "Company Name": "AKZO NOBEL NV", "ISIN": "", "Name": "Felling\nProtective Coatings Manufacturing", "Asset type": "Factory", "popup-text": "", "Comodity": "", "Production": "", "Unit": "", "Date": "", "Water": 0, "Biodiv": 0, "Social": 1, "Contro": 0, "marker-symbol": "https://raw.githubusercontent.com/eheurard/wikibiodi/main/factory.png"}}, {"type": "Feature", "geometry": {"type": "Point", "coordinates": [-0.32875, 53.77413]}, "properties": {"longitude": -0.3287499772052911, "latitude": 53.77412999690236, "Company Name": "AKZO NOBEL NV", "ISIN": "", "Name": "Hull\nIndustrial Coatings Manufacturing", "Asset type": "Factory", "popup-text": "", "Comodity": "", "Production": "", "Unit": "", "Date": "", "Water": 0, "Biodiv": 2, "Social": 0, "Contro": 1, "marker-symbol": "https://raw.githubusercontent.com/eheurard/wikibiodi/main/factory.png"}}, {"type": "Feature", "geometry": {"type": "Point", "coordinates": [-1.85614, 52.48239]}, "properties": {"longitude": -1.8561400202364382, "latitude": 52.482389995121565, "Company Name": "AKZO NOBEL NV", "ISIN": "", "Name": "Industrial Coatings Manufacturing", "Asset type": "Factory", "popup-text": "", "Comodity": "", "Production": "", "Unit": "", "Date": "", "Water": 1, "Biodiv": 1, "Social": 0, "Contro": 0, "marker-symbol": "https://raw.githubusercontent.com/eheurard/wikibiodi/main/factory.png"}}, {"type": "Feature", "geometry": {"type": "Point", "coordinates": [-1.19325, 52.60344]}, "properties": {"longitude": -1.1932499991698364, "latitude": 52.603440015857785, "Company Name": "AKZO NOBEL NV", "ISIN": "", "Name": "Leicester\nAerospace Coatings Manufacturing", "Asset type": "Factory", "popup-text": "", "Comodity": "", "Production": "", "Unit": "", "Date": "", "Water": 1, "Biodiv": 3, "Social": 1, "Contro": 1, "marker-symbol": "https://raw.githubusercontent.com/eheurard/wikibiodi/main/factory.png"}}, {"type": "Feature", "geometry": {"type": "Point", "coordinates": [-2.70428, 53.70115]}, "properties": {"longitude": -2.704279992126061, "latitude": 53.70114998132976, "Company Name": "AKZO NOBEL NV", "ISIN": "", "Name": "Leyland\nProtective Coatings Manufacturing", "Asset type": "Factory", "popup-text": "", "Comodity": "", "Production": "", "Unit": "", "Date": "", "Water": 2, "Biodiv": 0, "Social": 3, "Contro": 3, "marker-symbol": "https://raw.githubusercontent.com/eheurard/wikibiodi/main/factory.png"}}, {"type": "Feature", "geometry": {"type": "Point", "coordinates": [1.00548, 52.1835]}, "properties": {"longitude": 1.0054800291571269, "latitude": 52.183500003155075, "Company Name": "AKZO NOBEL NV", "ISIN": "", "Name": "Stowmarket\nDecorative Paint Manufacturing", "Asset type": "Factory", "popup-text": "", "Comodity": "", "Production": "", "Unit": "", "Date": "", "Water": 3, "Biodiv": 3, "Social": 2, "Contro": 1, "marker-symbol": "https://raw.githubusercontent.com/eheurard/wikibiodi/main/factory.png"}}, {"type": "Feature", "geometry": {"type": "Point", "coordinates": [148.551346, -22.929193]}, "properties": {"longitude": 148.5513459380952, "latitude": -22.929193, "Company Name": "ANGLO AMERICAN PLC", "ISIN": "", "Name": "Alquila project ", "Asset type": "Mine", "popup-text": "", "Comodity": "", "Production": "", "Unit": "", "Date": "", "Water": 3, "Biodiv": 1, "Social": 0, "Contro": 1, "marker-symbol": "https://raw.githubusercontent.com/eheurard/wikibiodi/main/Mine.png"}}, {"type": "Feature", "geometry": {"type": "Point", "coordinates": [-48.338925, -14.156733]}, "properties": {"longitude": -48.33892466190476, "latitude": -14.1567328, "Company Name": "ANGLO AMERICAN PLC", "ISIN": "", "Name": "Anglo American N\u00edquel - Codemin", "Asset type": "Mine", "popup-text": "", "Comodity": "", "Production": "", "Unit": "", "Date": "", "Water": 2, "Biodiv": 2, "Social": 3, "Contro": 3, "marker-symbol": "https://raw.githubusercontent.com/eheurard/wikibiodi/main/Mine.png"}}, {"type": "Feature", "geometry": {"type": "Point", "coordinates": [27.327222, -25.675261]}, "properties": {"longitude": 27.32722203809524, "latitude": -25.6752605, "Company Name": "ANGLO AMERICAN PLC", "ISIN": "", "Name": "Anglo American Platinum Waterval Smelter", "Asset type": "Factory", "popup-text": "", "Comodity": "", "Production": "", "Unit": "", "Date": "", "Water": 1, "Biodiv": 1, "Social": 0, "Contro": 0, "marker-symbol": "https://raw.githubusercontent.com/eheurard/wikibiodi/main/factory.png"}}, {"type": "Feature", "geometry": {"type": "Point", "coordinates": [27.350027, -25.696411]}, "properties": {"longitude": 27.35002713809524, "latitude": -25.6964111, "Company Name": "ANGLO AMERICAN PLC", "ISIN": "", "Name": "Anglo American Precious Metal Refinery PMR", "Asset type": "Mine", "popup-text": "", "Comodity": "", "Production": "", "Unit": "", "Date": "", "Water": 2, "Biodiv": 2, "Social": 3, "Contro": 1, "marker-symbol": "https://raw.githubusercontent.com/eheurard/wikibiodi/main/Mine.png"}}, {"type": "Feature", "geometry": {"type": "Point", "coordinates": [-48.943498, -15.075825]}, "properties": {"longitude": -48.94349806190476, "latitude": -15.0758247, "Company Name": "ANGLO AMERICAN PLC", "ISIN": "", "Name": "Barro Alto", "Asset type": "Mine", "popup-text": "", "Comodity": "", "Production": "", "Unit": "", "Date": "", "Water": 3, "Biodiv": 2, "Social": 0, "Contro": 2, "marker-symbol": "https://raw.githubusercontent.com/eheurard/wikibiodi/main/Mine.png"}}, {"type": "Feature", "geometry": {"type": "Point", "coordinates": [29.88271, -24.292792]}, "properties": {"longitude": 29.88271043809524, "latitude": -24.2927919, "Company Name": "ANGLO AMERICAN PLC", "ISIN": "", "Name": "Bokoni Platinum Mines", "Asset type": "Mine", "popup-text": "", "Comodity": "", "Production": "", "Unit": "", "Date": "", "Water": 1, "Biodiv": 0, "Social": 3, "Contro": 2, "marker-symbol": "https://raw.githubusercontent.com/eheurard/wikibiodi/main/Mine.png"}}, {"type": "Feature", "geometry": {"type": "Point", "coordinates": [148.786142, -22.977263]}, "properties": {"longitude": 148.7861419100099, "latitude": -22.97726297109173, "Company Name": "ANGLO AMERICAN PLC", "ISIN": "", "Name": "Capcoal mine", "Asset type": "Mine", "popup-text": "", "Comodity": "", "Production": "", "Unit": "", "Date": "", "Water": 2, "Biodiv": 2, "Social": 2, "Contro": 0, "marker-symbol": "https://raw.githubusercontent.com/eheurard/wikibiodi/main/Mine.png"}}, {"type": "Feature", "geometry": {"type": "Point", "coordinates": [-72.620214, 11.13282]}, "properties": {"longitude": -72.62021428571427, "latitude": 11.13282, "Company Name": "ANGLO AMERICAN PLC", "ISIN": "", "Name": "Cerrejon mine", "Asset type": "Mine", "popup-text": "", "Comodity": "", "Production": "", "Unit": "", "Date": "", "Water": 2, "Biodiv": 3, "Social": 2, "Contro": 1, "marker-symbol": "https://raw.githubusercontent.com/eheurard/wikibiodi/main/Mine.png"}}, {"type": "Feature", "geometry": {"type": "Point", "coordinates": [-68.636872, -20.981419]}, "properties": {"longitude": -68.63687216190476, "latitude": -20.9814192, "Company Name": "ANGLO AMERICAN PLC", "ISIN": "", "Name": "Collahuasi Copper Mine", "Asset type": "Mine", "popup-text": "", "Comodity": "", "Production": "", "Unit": "", "Date": "", "Water": 3, "Biodiv": 2, "Social": 0, "Contro": 1, "marker-symbol": "https://raw.githubusercontent.com/eheurard/wikibiodi/main/Mine.png"}}, {"type": "Feature", "geometry": {"type": "Point", "coordinates": [25.538784, -21.306013]}, "properties": {"longitude": 25.53878443809523, "latitude": -21.3060131, "Company Name": "ANGLO AMERICAN PLC", "ISIN": "", "Name": "Damtshaa Diamond Mine", "Asset type": "Mine", "popup-text": "", "Comodity": "", "Production": "", "Unit": "", "Date": "", "Water": 1, "Biodiv": 3, "Social": 3, "Contro": 2, "marker-symbol": "https://raw.githubusercontent.com/eheurard/wikibiodi/main/Mine.png"}}, {"type": "Feature", "geometry": {"type": "Point", "coordinates": [150.061563, -24.631749]}, "properties": {"longitude": 150.0615627380952, "latitude": -24.631749, "Company Name": "ANGLO AMERICAN PLC", "ISIN": "", "Name": "Dawson Mine", "Asset type": "Mine", "popup-text": "", "Comodity": "", "Production": "", "Unit": "", "Date": "", "Water": 1, "Biodiv": 0, "Social": 1, "Contro": 1, "marker-symbol": "https://raw.githubusercontent.com/eheurard/wikibiodi/main/Mine.png"}}, {"type": "Feature", "geometry": {"type": "Point", "coordinates": [27.391706, -24.758533]}, "properties": {"longitude": 27.39170643809524, "latitude": -24.7585328, "Company Name": "ANGLO AMERICAN PLC", "ISIN": "", "Name": "Dishaba Mine", "Asset type": "Mine", "popup-text": "", "Comodity": "", "Production": "", "Unit": "", "Date": "", "Water": 1, "Biodiv": 3, "Social": 1, "Contro": 3, "marker-symbol": "https://raw.githubusercontent.com/eheurard/wikibiodi/main/Mine.png"}}, {"type": "Feature", "geometry": {"type": "Point", "coordinates": [27.366242, -24.745038]}, "properties": {"longitude": 27.36624243538374, "latitude": -24.74503841034695, "Company Name": "ANGLO AMERICAN PLC", "ISIN": "", "Name": "Dishaba mine PGMs", "Asset type": "Mine", "popup-text": "", "Comodity": "", "Production": "", "Unit": "", "Date": "", "Water": 3, "Biodiv": 1, "Social": 2, "Contro": 2, "marker-symbol": "https://raw.githubusercontent.com/eheurard/wikibiodi/main/Mine.png"}}, {"type": "Feature", "geometry": {"type": "Point", "coordinates": [-70.957227, -32.803763]}, "properties": {"longitude": -70.95722716190475, "latitude": -32.8037626, "Company Name": "ANGLO AMERICAN PLC", "ISIN": "", "Name": "Fundici\u00f3n Chagres, smelter copper", "Asset type": "Factory", "popup-text": "", "Comodity": "", "Production": "", "Unit": "", "Date": "", "Water": 3, "Biodiv": 0, "Social": 0, "Contro": 3, "marker-symbol": "https://raw.githubusercontent.com/eheurard/wikibiodi/main/factory.png"}}, {"type": "Feature", "geometry": {"type": "Point", "coordinates": [136.444162, -13.975843]}, "properties": {"longitude": 136.4441622380952, "latitude": -13.9758435, "Company Name": "ANGLO AMERICAN PLC", "ISIN": "", "Name": "GEMCO Mine ", "Asset type": "Mine", "popup-text": "", "Comodity": "", "Production": "", "Unit": "", "Date": "", "Water": 1, "Biodiv": 1, "Social": 1, "Contro": 3, "marker-symbol": "https://raw.githubusercontent.com/eheurard/wikibiodi/main/Mine.png"}}, {"type": "Feature", "geometry": {"type": "Point", "coordinates": [-109.199456, 63.434718]}, "properties": {"longitude": -109.1994564619048, "latitude": 63.4347179, "Company Name": "ANGLO AMERICAN PLC", "ISIN": "", "Name": "Gahcho Ku\u00e9 Diamond Mine", "Asset type": "Mine", "popup-text": "", "Comodity": "", "Production": "", "Unit": "", "Date": "", "Water": 3, "Biodiv": 0, "Social": 2, "Contro": 3, "marker-symbol": "https://raw.githubusercontent.com/eheurard/wikibiodi/main/Mine.png"}}, {"type": "Feature", "geometry": {"type": "Point", "coordinates": [148.58005, -22.988627]}, "properties": {"longitude": 148.5800502380953, "latitude": -22.9886271, "Company Name": "ANGLO AMERICAN PLC", "ISIN": "", "Name": "Grasstree mine", "Asset type": "Mine", "popup-text": "", "Comodity": "", "Production": "", "Unit": "", "Date": "", "Water": 1, "Biodiv": 3, "Social": 2, "Contro": 1, "marker-symbol": "https://raw.githubusercontent.com/eheurard/wikibiodi/main/Mine.png"}}, {"type": "Feature", "geometry": {"type": "Point", "coordinates": [148.011731, -21.974434]}, "properties": {"longitude": 148.0117305380952, "latitude": -21.9744338, "Company Name": "ANGLO AMERICAN PLC", "ISIN": "", "Name": "Grosvenor Coal Mine", "Asset type": "Mine", "popup-text": "", "Comodity": "", "Production": "", "Unit": "", "Date": "", "Water": 0, "Biodiv": 2, "Social": 2, "Contro": 3, "marker-symbol": "https://raw.githubusercontent.com/eheurard/wikibiodi/main/Mine.png"}}, {"type": "Feature", "geometry": {"type": "Point", "coordinates": [22.964966, -28.380826]}, "properties": {"longitude": 22.96496563809523, "latitude": -28.3808257, "Company Name": "ANGLO AMERICAN PLC", "ISIN": "", "Name": "Kolomela Mine", "Asset type": "Mine", "popup-text": "", "Comodity": "", "Production": "", "Unit": "", "Date": "", "Water": 2, "Biodiv": 2, "Social": 3, "Contro": 1, "marker-symbol": "https://raw.githubusercontent.com/eheurard/wikibiodi/main/Mine.png"}}, {"type": "Feature", "geometry": {"type": "Point", "coordinates": [27.320619, -25.713542]}, "properties": {"longitude": 27.32061863809524, "latitude": -25.7135419, "Company Name": "ANGLO AMERICAN PLC", "ISIN": "", "Name": "Kroondal Mine ", "Asset type": "Mine", "popup-text": "", "Comodity": "", "Production": "", "Unit": "", "Date": "", "Water": 0, "Biodiv": 3, "Social": 3, "Contro": 0, "marker-symbol": "https://raw.githubusercontent.com/eheurard/wikibiodi/main/Mine.png"}}, {"type": "Feature", "geometry": {"type": "Point", "coordinates": [27.406078, -24.596645]}, "properties": {"longitude": 27.40607773809524, "latitude": -24.596645, "Company Name": "ANGLO AMERICAN PLC", "ISIN": "", "Name": "Kumba Iron Ore Thabazimbi Mine", "Asset type": "Mine", "popup-text": "", "Comodity": "", "Production": "", "Unit": "", "Date": "", "Water": 3, "Biodiv": 1, "Social": 2, "Contro": 1, "marker-symbol": "https://raw.githubusercontent.com/eheurard/wikibiodi/main/Mine.png"}}, {"type": "Feature", "geometry": {"type": "Point", "coordinates": [25.689426, -21.519697]}, "properties": {"longitude": 25.68942633809524, "latitude": -21.5196967, "Company Name": "ANGLO AMERICAN PLC", "ISIN": "", "Name": "Letlhakane Diamond Mine", "Asset type": "Mine", "popup-text": "", "Comodity": "", "Production": "", "Unit": "", "Date": "", "Water": 3, "Biodiv": 2, "Social": 1, "Contro": 1, "marker-symbol": "https://raw.githubusercontent.com/eheurard/wikibiodi/main/Mine.png"}}, {"type": "Feature", "geometry": {"type": "Point", "coordinates": [27.527468, -25.697618]}, "properties": {"longitude": 27.52746757577378, "latitude": -25.69761815510288, "Company Name": "ANGLO AMERICAN PLC", "ISIN": "", "Name": "Marikana Mine", "Asset type": "Mine", "popup-text": "", "Comodity": "", "Production": "", "Unit": "", "Date": "", "Water": 2, "Biodiv": 2, "Social": 0, "Contro": 0, "marker-symbol": "https://raw.githubusercontent.com/eheurard/wikibiodi/main/Mine.png"}}, {"type": "Feature", "geometry": {"type": "Point", "coordinates": [-71.163794, -32.652094]}, "properties": {"longitude": -71.16379366190475, "latitude": -32.6520941, "Company Name": "ANGLO AMERICAN PLC", "ISIN": "", "Name": "Mina El Soldado copper", "Asset type": "Mine", "popup-text": "", "Comodity": "", "Production": "", "Unit": "", "Date": "", "Water": 0, "Biodiv": 3, "Social": 0, "Contro": 2, "marker-symbol": "https://raw.githubusercontent.com/eheurard/wikibiodi/main/Mine.png"}}, {"type": "Feature", "geometry": {"type": "Point", "coordinates": [-70.28535, -33.147774]}, "properties": {"longitude": -70.28535036190476, "latitude": -33.1477737, "Company Name": "ANGLO AMERICAN PLC", "ISIN": "", "Name": "Mina Los Bronces", "Asset type": "Mine", "popup-text": "", "Comodity": "", "Production": "", "Unit": "", "Date": "", "Water": 2, "Biodiv": 2, "Social": 3, "Contro": 1, "marker-symbol": "https://raw.githubusercontent.com/eheurard/wikibiodi/main/Mine.png"}}, {"type": "Feature", "geometry": {"type": "Point", "coordinates": [-43.43146, -18.873655]}, "properties": {"longitude": -43.43145976190476, "latitude": -18.8736548, "Company Name": "ANGLO AMERICAN PLC", "ISIN": "", "Name": "Minas Rio", "Asset type": "Mine", "popup-text": "", "Comodity": "", "Production": "", "Unit": "", "Date": "", "Water": 2, "Biodiv": 0, "Social": 3, "Contro": 3, "marker-symbol": "https://raw.githubusercontent.com/eheurard/wikibiodi/main/Mine.png"}}, {"type": "Feature", "geometry": {"type": "Point", "coordinates": [30.138148, -24.641883]}, "properties": {"longitude": 30.13814833809524, "latitude": -24.641883, "Company Name": "ANGLO AMERICAN PLC", "ISIN": "", "Name": "Modikwa Platinum Mine", "Asset type": "Mine", "popup-text": "", "Comodity": "", "Production": "", "Unit": "", "Date": "", "Water": 0, "Biodiv": 0, "Social": 1, "Contro": 1, "marker-symbol": "https://raw.githubusercontent.com/eheurard/wikibiodi/main/Mine.png"}}, {"type": "Feature", "geometry": {"type": "Point", "coordinates": [28.91611, -23.982241]}, "properties": {"longitude": 28.91611023809524, "latitude": -23.98224100000001, "Company Name": "ANGLO AMERICAN PLC", "ISIN": "", "Name": "Mogalakwena Mine PGMs", "Asset type": "Mine", "popup-text": "", "Comodity": "", "Production": "", "Unit": "", "Date": "", "Water": 2, "Biodiv": 0, "Social": 0, "Contro": 2, "marker-symbol": "https://raw.githubusercontent.com/eheurard/wikibiodi/main/Mine.png"}}, {"type": "Feature", "geometry": {"type": "Point", "coordinates": [147.967102, -21.885598]}, "properties": {"longitude": 147.9671023380953, "latitude": -21.8855982, "Company Name": "ANGLO AMERICAN PLC", "ISIN": "", "Name": "Moranbah North Coal", "Asset type": "Mine", "popup-text": "", "Comodity": "", "Production": "", "Unit": "", "Date": "", "Water": 2, "Biodiv": 0, "Social": 2, "Contro": 1, "marker-symbol": "https://raw.githubusercontent.com/eheurard/wikibiodi/main/Mine.png"}}, {"type": "Feature", "geometry": {"type": "Point", "coordinates": [148.131521, -22.082172]}, "properties": {"longitude": 148.1315209380952, "latitude": -22.0821724, "Company Name": "ANGLO AMERICAN PLC", "ISIN": "", "Name": "Moranbah South coal", "Asset type": "Mine", "popup-text": "", "Comodity": "", "Production": "", "Unit": "", "Date": "", "Water": 2, "Biodiv": 3, "Social": 0, "Contro": 1, "marker-symbol": "https://raw.githubusercontent.com/eheurard/wikibiodi/main/Mine.png"}}, {"type": "Feature", "geometry": {"type": "Point", "coordinates": [30.124058, -24.994258]}, "properties": {"longitude": 30.12405833809524, "latitude": -24.9942584, "Company Name": "ANGLO AMERICAN PLC", "ISIN": "", "Name": "Mototolo Mine ", "Asset type": "Mine", "popup-text": "", "Comodity": "", "Production": "", "Unit": "", "Date": "", "Water": 2, "Biodiv": 0, "Social": 2, "Contro": 1, "marker-symbol": "https://raw.githubusercontent.com/eheurard/wikibiodi/main/Mine.png"}}, {"type": "Feature", "geometry": {"type": "Point", "coordinates": [15.192829, -26.619365]}, "properties": {"longitude": 15.19282861900052, "latitude": -26.61936470929395, "Company Name": "ANGLO AMERICAN PLC", "ISIN": "", "Name": "Namdeb diamond mine ", "Asset type": "Mine", "popup-text": "", "Comodity": "", "Production": "", "Unit": "", "Date": "", "Water": 0, "Biodiv": 1, "Social": 1, "Contro": 3, "marker-symbol": "https://raw.githubusercontent.com/eheurard/wikibiodi/main/Mine.png"}}, {"type": "Feature", "geometry": {"type": "Point", "coordinates": [25.37078, -21.308921]}, "properties": {"longitude": 25.37077963809524, "latitude": -21.3089208, "Company Name": "ANGLO AMERICAN PLC", "ISIN": "", "Name": "Orapa Diamond Mine", "Asset type": "Mine", "popup-text": "", "Comodity": "", "Production": "", "Unit": "", "Date": "", "Water": 0, "Biodiv": 1, "Social": 2, "Contro": 1, "marker-symbol": "https://raw.githubusercontent.com/eheurard/wikibiodi/main/Mine.png"}}, {"type": "Feature", "geometry": {"type": "Point", "coordinates": [29.467667, -24.023063]}, "properties": {"longitude": 29.46766723809524, "latitude": -24.0230635, "Company Name": "ANGLO AMERICAN PLC", "ISIN": "", "Name": "Polokwane Smelter", "Asset type": "Mine", "popup-text": "", "Comodity": "", "Production": "", "Unit": "", "Date": "", "Water": 2, "Biodiv": 3, "Social": 0, "Contro": 1, "marker-symbol": "https://raw.githubusercontent.com/eheurard/wikibiodi/main/Mine.png"}}, {"type": "Feature", "geometry": {"type": "Point", "coordinates": [-70.612955, -17.10271]}, "properties": {"longitude": -70.61295506190476, "latitude": -17.1027096, "Company Name": "ANGLO AMERICAN PLC", "ISIN": "", "Name": "Quellaveco Copper Mine", "Asset type": "Mine", "popup-text": "", "Comodity": "", "Production": "", "Unit": "", "Date": "", "Water": 2, "Biodiv": 2, "Social": 3, "Contro": 2, "marker-symbol": "https://raw.githubusercontent.com/eheurard/wikibiodi/main/Mine.png"}}, {"type": "Feature", "geometry": {"type": "Point", "coordinates": [26.642666, 67.407432]}, "properties": {"longitude": 26.64266633809524, "latitude": 67.4074325, "Company Name": "ANGLO AMERICAN PLC", "ISIN": "", "Name": "Sakatti project, Nickel and manganese", "Asset type": "Mine", "popup-text": "", "Comodity": "", "Production": "", "Unit": "", "Date": "", "Water": 3, "Biodiv": 1, "Social": 2, "Contro": 0, "marker-symbol": "https://raw.githubusercontent.com/eheurard/wikibiodi/main/Mine.png"}}, {"type": "Feature", "geometry": {"type": "Point", "coordinates": [22.926871, -27.221715]}, "properties": {"longitude": 22.92687099149209, "latitude": -27.22171529292329, "Company Name": "ANGLO AMERICAN PLC", "ISIN": "", "Name": "Samancor Hotazel", "Asset type": "Mine", "popup-text": "", "Comodity": "", "Production": "", "Unit": "", "Date": "", "Water": 1, "Biodiv": 0, "Social": 1, "Contro": 2, "marker-symbol": "https://raw.githubusercontent.com/eheurard/wikibiodi/main/Mine.png"}}, {"type": "Feature", "geometry": {"type": "Point", "coordinates": [27.993988, -26.58103]}, "properties": {"longitude": 27.99398843809524, "latitude": -26.5810298, "Company Name": "ANGLO AMERICAN PLC", "ISIN": "", "Name": "Samancor Manganese - Metalloys plant", "Asset type": "Factory", "popup-text": "", "Comodity": "", "Production": "", "Unit": "", "Date": "", "Water": 2, "Biodiv": 2, "Social": 2, "Contro": 3, "marker-symbol": "https://raw.githubusercontent.com/eheurard/wikibiodi/main/factory.png"}}, {"type": "Feature", "geometry": {"type": "Point", "coordinates": [23.014208, -27.751099]}, "properties": {"longitude": 23.01420823809524, "latitude": -27.7510994, "Company Name": "ANGLO AMERICAN PLC", "ISIN": "", "Name": "Sishen Mine", "Asset type": "Mine", "popup-text": "", "Comodity": "", "Production": "", "Unit": "", "Date": "", "Water": 1, "Biodiv": 3, "Social": 1, "Contro": 1, "marker-symbol": "https://raw.githubusercontent.com/eheurard/wikibiodi/main/Mine.png"}}, {"type": "Feature", "geometry": {"type": "Point", "coordinates": [-110.886999, 63.601456]}, "properties": {"longitude": -110.8869987218078, "latitude": 63.60145611580081, "Company Name": "ANGLO AMERICAN PLC", "ISIN": "", "Name": "Snap lake Diamonds", "Asset type": "Mine", "popup-text": "", "Comodity": "", "Production": "", "Unit": "", "Date": "", "Water": 0, "Biodiv": 2, "Social": 1, "Contro": 2, "marker-symbol": "https://raw.githubusercontent.com/eheurard/wikibiodi/main/Mine.png"}}, {"type": "Feature", "geometry": {"type": "Point", "coordinates": [146.862448, -41.131928]}, "properties": {"longitude": 146.8624482545283, "latitude": -41.13192815621645, "Company Name": "ANGLO AMERICAN PLC", "ISIN": "", "Name": "Temco ferro-alloy smelter", "Asset type": "Mine", "popup-text": "", "Comodity": "", "Production": "", "Unit": "", "Date": "", "Water": 0, "Biodiv": 1, "Social": 2, "Contro": 2, "marker-symbol": "https://raw.githubusercontent.com/eheurard/wikibiodi/main/Mine.png"}}, {"type": "Feature", "geometry": {"type": "Point", "coordinates": [27.268658, -24.806185]}, "properties": {"longitude": 27.26865823391854, "latitude": -24.80618521866267, "Company Name": "ANGLO AMERICAN PLC", "ISIN": "", "Name": "Tumela mine PGMs", "Asset type": "Mine", "popup-text": "", "Comodity": "", "Production": "", "Unit": "", "Date": "", "Water": 3, "Biodiv": 2, "Social": 0, "Contro": 2, "marker-symbol": "https://raw.githubusercontent.com/eheurard/wikibiodi/main/Mine.png"}}, {"type": "Feature", "geometry": {"type": "Point", "coordinates": [30.059511, -24.457595]}, "properties": {"longitude": 30.05951133809524, "latitude": -24.4575951, "Company Name": "ANGLO AMERICAN PLC", "ISIN": "", "Name": "Twickenham Mine ", "Asset type": "Mine", "popup-text": "", "Comodity": "", "Production": "", "Unit": "", "Date": "", "Water": 2, "Biodiv": 3, "Social": 1, "Contro": 0, "marker-symbol": "https://raw.githubusercontent.com/eheurard/wikibiodi/main/Mine.png"}}, {"type": "Feature", "geometry": {"type": "Point", "coordinates": [30.095952, -19.62266]}, "properties": {"longitude": 30.09595243809524, "latitude": -19.62266020000001, "Company Name": "ANGLO AMERICAN PLC", "ISIN": "", "Name": "Unki Platinum Mine", "Asset type": "Mine", "popup-text": "", "Comodity": "", "Production": "", "Unit": "", "Date": "", "Water": 0, "Biodiv": 2, "Social": 1, "Contro": 3, "marker-symbol": "https://raw.githubusercontent.com/eheurard/wikibiodi/main/Mine.png"}}, {"type": "Feature", "geometry": {"type": "Point", "coordinates": [29.314984, -22.433889]}, "properties": {"longitude": 29.31498413809524, "latitude": -22.4338889, "Company Name": "ANGLO AMERICAN PLC", "ISIN": "", "Name": "Venetia diamond Mine", "Asset type": "Mine", "popup-text": "", "Comodity": "", "Production": "", "Unit": "", "Date": "", "Water": 0, "Biodiv": 3, "Social": 1, "Contro": 2, "marker-symbol": "https://raw.githubusercontent.com/eheurard/wikibiodi/main/Mine.png"}}, {"type": "Feature", "geometry": {"type": "Point", "coordinates": [-83.890384, 52.820851]}, "properties": {"longitude": -83.89038400714864, "latitude": 52.82085071480531, "Company Name": "ANGLO AMERICAN PLC", "ISIN": "", "Name": "Victor diamond mine", "Asset type": "Mine", "popup-text": "", "Comodity": "", "Production": "", "Unit": "", "Date": "", "Water": 3, "Biodiv": 1, "Social": 2, "Contro": 1, "marker-symbol": "https://raw.githubusercontent.com/eheurard/wikibiodi/main/Mine.png"}}, {"type": "Feature", "geometry": {"type": "Point", "coordinates": [27.192048, -27.389484]}, "properties": {"longitude": 27.19204753809524, "latitude": -27.3894844, "Company Name": "ANGLO AMERICAN PLC", "ISIN": "", "Name": "Voorspoed diamond Mine ", "Asset type": "Mine", "popup-text": "", "Comodity": "", "Production": "", "Unit": "", "Date": "", "Water": 2, "Biodiv": 1, "Social": 2, "Contro": 3, "marker-symbol": "https://raw.githubusercontent.com/eheurard/wikibiodi/main/Mine.png"}}, {"type": "Feature", "geometry": {"type": "Point", "coordinates": [-0.619585, 54.428888]}, "properties": {"longitude": -0.619585361904762, "latitude": 54.42888809999999, "Company Name": "ANGLO AMERICAN PLC", "ISIN": "", "Name": "Woodsmith Mine project polyhalite", "Asset type": "Mine", "popup-text": "", "Comodity": "", "Production": "", "Unit": "", "Date": "", "Water": 0, "Biodiv": 2, "Social": 1, "Contro": 2, "marker-symbol": "https://raw.githubusercontent.com/eheurard/wikibiodi/main/Mine.png"}}, {"type": "Feature", "geometry": {"type": "Point", "coordinates": [100.726752, 13.621606]}, "properties": {"longitude": 100.726751606479, "latitude": 13.621605545874, "Company Name": "BEIERSDORF AG", "ISIN": "", "Name": "Beiersdorf (Thailand) Co., Ltd.", "Asset type": "Factory", "popup-text": "", "Comodity": "", "Production": "", "Unit": "", "Date": "", "Water": 3, "Biodiv": 0, "Social": 3, "Contro": 1, "marker-symbol": "https://raw.githubusercontent.com/eheurard/wikibiodi/main/factory.png"}}, {"type": "Feature", "geometry": {"type": "Point", "coordinates": [72.88645, 19.08499]}, "properties": {"longitude": 72.88645, "latitude": 19.08499, "Company Name": "BEIERSDORF AG", "ISIN": "", "Name": "Beiersdorf India Pvt. Limited", "Asset type": "Factory", "popup-text": "", "Comodity": "", "Production": "", "Unit": "", "Date": "", "Water": 1, "Biodiv": 0, "Social": 1, "Contro": 2, "marker-symbol": "https://raw.githubusercontent.com/eheurard/wikibiodi/main/factory.png"}}, {"type": "Feature", "geometry": {"type": "Point", "coordinates": [-46.808282, -23.013895]}, "properties": {"longitude": -46.80828193685, "latitude": -23.013894639946, "Company Name": "BEIERSDORF AG", "ISIN": "", "Name": "Beiersdorf Ind\u00fastria e Com\u00e9rcio Ltda.", "Asset type": "Factory", "popup-text": "", "Comodity": "", "Production": "", "Unit": "", "Date": "", "Water": 3, "Biodiv": 2, "Social": 3, "Contro": 0, "marker-symbol": "https://raw.githubusercontent.com/eheurard/wikibiodi/main/factory.png"}}, {"type": "Feature", "geometry": {"type": "Point", "coordinates": [2.395561, 41.568622]}, "properties": {"longitude": 2.39556068605, "latitude": 41.568622446197, "Company Name": "BEIERSDORF AG", "ISIN": "", "Name": "Beiersdorf Manufacturing Argentona, S.L.", "Asset type": "Factory", "popup-text": "", "Comodity": "", "Production": "", "Unit": "", "Date": "", "Water": 2, "Biodiv": 0, "Social": 2, "Contro": 3, "marker-symbol": "https://raw.githubusercontent.com/eheurard/wikibiodi/main/factory.png"}}, {"type": "Feature", "geometry": {"type": "Point", "coordinates": [13.325547, 52.517601]}, "properties": {"longitude": 13.325546650833, "latitude": 52.517600693981, "Company Name": "BEIERSDORF AG", "ISIN": "", "Name": "Beiersdorf Manufacturing Berlin GmbH", "Asset type": "Factory", "popup-text": "", "Comodity": "", "Production": "", "Unit": "", "Date": "", "Water": 3, "Biodiv": 1, "Social": 3, "Contro": 1, "marker-symbol": "https://raw.githubusercontent.com/eheurard/wikibiodi/main/factory.png"}}, {"type": "Feature", "geometry": {"type": "Point", "coordinates": [10.34262, 53.43902]}, "properties": {"longitude": 10.342620010647, "latitude": 53.439019999206, "Company Name": "BEIERSDORF AG", "ISIN": "", "Name": "Beiersdorf Manufacturing Hamburg GmbH", "Asset type": "Factory", "popup-text": "", "Comodity": "", "Production": "", "Unit": "", "Date": "", "Water": 3, "Biodiv": 0, "Social": 1, "Contro": 2, "marker-symbol": "https://raw.githubusercontent.com/eheurard/wikibiodi/main/factory.png"}}, {"type": "Feature", "geometry": {"type": "Point", "coordinates": [-101.483595, 21.017572]}, "properties": {"longitude": -101.483595407244, "latitude": 21.017571633722, "Company Name": "BEIERSDORF AG", "ISIN": "", "Name": "Beiersdorf Manufacturing M\u00e9xico, S.A. de C.V.", "Asset type": "Factory", "popup-text": "", "Comodity": "", "Production": "", "Unit": "", "Date": "", "Water": 0, "Biodiv": 3, "Social": 1, "Contro": 0, "marker-symbol": "https://raw.githubusercontent.com/eheurard/wikibiodi/main/factory.png"}}, {"type": "Feature", "geometry": {"type": "Point", "coordinates": [16.989472, 52.424255]}, "properties": {"longitude": 16.989472413896, "latitude": 52.424254665349, "Company Name": "BEIERSDORF AG", "ISIN": "", "Name": "Beiersdorf Manufacturing Poznan Sp. z o.o.", "Asset type": "Factory", "popup-text": "", "Comodity": "", "Production": "", "Unit": "", "Date": "", "Water": 1, "Biodiv": 3, "Social": 0, "Contro": 3, "marker-symbol": "https://raw.githubusercontent.com/eheurard/wikibiodi/main/factory.png"}}, {"type": "Feature", "geometry": {"type": "Point", "coordinates": [-3.69835, 40.61212]}, "properties": {"longitude": -3.698349987948, "latitude": 40.612120018626, "Company Name": "BEIERSDORF AG", "ISIN": "", "Name": "Beiersdorf Manufacturing Tres Cantos, S.L.", "Asset type": "Factory", "popup-text": "", "Comodity": "", "Production": "", "Unit": "", "Date": "", "Water": 3, "Biodiv": 1, "Social": 1, "Contro": 1, "marker-symbol": "https://raw.githubusercontent.com/eheurard/wikibiodi/main/factory.png"}}, {"type": "Feature", "geometry": {"type": "Point", "coordinates": [13.020208, 51.077123]}, "properties": {"longitude": 13.020207987254, "latitude": 51.077123136033, "Company Name": "BEIERSDORF AG", "ISIN": "", "Name": "Beiersdorf Manufacturing Waldheim GmbH", "Asset type": "Factory", "popup-text": "", "Comodity": "", "Production": "", "Unit": "", "Date": "", "Water": 2, "Biodiv": 1, "Social": 2, "Contro": 3, "marker-symbol": "https://raw.githubusercontent.com/eheurard/wikibiodi/main/factory.png"}}, {"type": "Feature", "geometry": {"type": "Point", "coordinates": [2.376767, 48.830163]}, "properties": {"longitude": 2.376767016191, "latitude": 48.830162980049, "Company Name": "BEIERSDORF AG", "ISIN": "", "Name": "Beiersdorf s.a.s.", "Asset type": "Factory", "popup-text": "", "Comodity": "", "Production": "", "Unit": "", "Date": "", "Water": 2, "Biodiv": 1, "Social": 2, "Contro": 1, "marker-symbol": "https://raw.githubusercontent.com/eheurard/wikibiodi/main/factory.png"}}, {"type": "Feature", "geometry": {"type": "Point", "coordinates": [-73.532962, 41.052308]}, "properties": {"longitude": -73.53296201375, "latitude": 41.052307985282, "Company Name": "BEIERSDORF AG", "ISIN": "", "Name": "Beiersdorf, Inc.", "Asset type": "Factory", "popup-text": "", "Comodity": "", "Production": "", "Unit": "", "Date": "", "Water": 1, "Biodiv": 2, "Social": 1, "Contro": 0, "marker-symbol": "https://raw.githubusercontent.com/eheurard/wikibiodi/main/factory.png"}}, {"type": "Feature", "geometry": {"type": "Point", "coordinates": [37.64638, 55.71575]}, "properties": {"longitude": 37.646380009896, "latitude": 55.715750006826, "Company Name": "BEIERSDORF AG", "ISIN": "", "Name": "La Prairie Group (RUS) LLC", "Asset type": "Factory", "popup-text": "", "Comodity": "", "Production": "", "Unit": "", "Date": "", "Water": 3, "Biodiv": 0, "Social": 3, "Contro": 0, "marker-symbol": "https://raw.githubusercontent.com/eheurard/wikibiodi/main/factory.png"}}, {"type": "Feature", "geometry": {"type": "Point", "coordinates": [6.78809, 51.22408]}, "properties": {"longitude": 6.788089986326, "latitude": 51.22407999878, "Company Name": "BEIERSDORF AG", "ISIN": "", "Name": "La Prairie Group Deutschland GmbH", "Asset type": "Factory", "popup-text": "", "Comodity": "", "Production": "", "Unit": "", "Date": "", "Water": 1, "Biodiv": 3, "Social": 0, "Contro": 1, "marker-symbol": "https://raw.githubusercontent.com/eheurard/wikibiodi/main/factory.png"}}, {"type": "Feature", "geometry": {"type": "Point", "coordinates": [-3.653602, 40.507487]}, "properties": {"longitude": -3.653601772922, "latitude": 40.507486877268, "Company Name": "BEIERSDORF AG", "ISIN": "", "Name": "La Prairie Group Iberia S.A.U.", "Asset type": "Factory", "popup-text": "", "Comodity": "", "Production": "", "Unit": "", "Date": "", "Water": 2, "Biodiv": 2, "Social": 1, "Contro": 2, "marker-symbol": "https://raw.githubusercontent.com/eheurard/wikibiodi/main/factory.png"}}, {"type": "Feature", "geometry": {"type": "Point", "coordinates": [-74.444913, 40.557086]}, "properties": {"longitude": -74.444912995419, "latitude": 40.557085993028, "Company Name": "BEIERSDORF AG", "ISIN": "", "Name": "La Prairie, Inc.", "Asset type": "Factory", "popup-text": "", "Comodity": "", "Production": "", "Unit": "", "Date": "", "Water": 3, "Biodiv": 2, "Social": 0, "Contro": 0, "marker-symbol": "https://raw.githubusercontent.com/eheurard/wikibiodi/main/factory.png"}}, {"type": "Feature", "geometry": {"type": "Point", "coordinates": [112.624235, -7.162133]}, "properties": {"longitude": 112.624235488901, "latitude": -7.162132969671, "Company Name": "BEIERSDORF AG", "ISIN": "", "Name": "PT. Beiersdorf Indonesia", "Asset type": "Factory", "popup-text": "", "Comodity": "", "Production": "", "Unit": "", "Date": "", "Water": 2, "Biodiv": 3, "Social": 3, "Contro": 0, "marker-symbol": "https://raw.githubusercontent.com/eheurard/wikibiodi/main/factory.png"}}, {"type": "Feature", "geometry": {"type": "Point", "coordinates": [-75.606922, 39.757788]}, "properties": {"longitude": -75.606921965073, "latitude": 39.757787999584, "Company Name": "BEIERSDORF AG", "ISIN": "", "Name": "Pangolin Holdings Inc.", "Asset type": "Factory", "popup-text": "", "Comodity": "", "Production": "", "Unit": "", "Date": "", "Water": 3, "Biodiv": 2, "Social": 1, "Contro": 0, "marker-symbol": "https://raw.githubusercontent.com/eheurard/wikibiodi/main/factory.png"}}, {"type": "Feature", "geometry": {"type": "Point", "coordinates": [40.765036, 41.039486]}, "properties": {"longitude": 40.7650358, "latitude": 41.0394863, "Company Name": "FIRST QUANTUM MINERALS LTD", "ISIN": "CA3359341052", "Name": "Cayeli", "Asset type": "Mine", "popup-text": "", "Comodity": "Copper", "Production": 11.456, "Unit": "t", "Date": 2022.0, "Water": 3, "Biodiv": 0, "Social": 2, "Contro": 2, "marker-symbol": "https://raw.githubusercontent.com/eheurard/wikibiodi/main/Mine.png"}}, {"type": "Feature", "geometry": {"type": "Point", "coordinates": [-6.104729, 37.496271]}, "properties": {"longitude": -6.1047285, "latitude": 37.4962712, "Company Name": "FIRST QUANTUM MINERALS LTD", "ISIN": "CA3359341053", "Name": "Cobre Las Cruces", "Asset type": "Mine", "popup-text": "", "Comodity": "Copper", "Production": 9.557, "Unit": "t", "Date": 2022.0, "Water": 2, "Biodiv": 1, "Social": 2, "Contro": 0, "marker-symbol": "https://raw.githubusercontent.com/eheurard/wikibiodi/main/Mine.png"}}, {"type": "Feature", "geometry": {"type": "Point", "coordinates": [-80.654122, 8.843979]}, "properties": {"longitude": -80.6541220219254, "latitude": 8.84397866223139, "Company Name": "FIRST QUANTUM MINERALS LTD", "ISIN": "CA3359341054", "Name": "Cobre Panama", "Asset type": "Mine", "popup-text": "", "Comodity": "Copper;Gold;Silver", "Production": "350438;139751;2813129", "Unit": "t;oz;oz", "Date": 2022.0, "Water": 0, "Biodiv": 3, "Social": 3, "Contro": 1, "marker-symbol": "https://raw.githubusercontent.com/eheurard/wikibiodi/main/Mine.png"}}, {"type": "Feature", "geometry": {"type": "Point", "coordinates": [-14.417672, 19.75385]}, "properties": {"longitude": -14.4176721439726, "latitude": 19.753850114846696, "Company Name": "FIRST QUANTUM MINERALS LTD", "ISIN": "CA3359341055", "Name": "Guelb Moghrein", "Asset type": "Mine", "popup-text": "", "Comodity": "Copper;Gold;Magnetite", "Production": "13313;30845;645061", "Unit": "t;oz;wmt", "Date": 2022.0, "Water": 3, "Biodiv": 0, "Social": 2, "Contro": 3, "marker-symbol": "https://raw.githubusercontent.com/eheurard/wikibiodi/main/Mine.png"}}, {"type": "Feature", "geometry": {"type": "Point", "coordinates": [-72.357954, -14.165359]}, "properties": {"longitude": -72.35795419999998, "latitude": -14.1653587, "Company Name": "FIRST QUANTUM MINERALS LTD", "ISIN": "CA3359341056", "Name": "Haquira", "Asset type": "Mine", "popup-text": "Mine project", "Comodity": "Copper", "Production": "", "Unit": "", "Date": 2022.0, "Water": 0, "Biodiv": 2, "Social": 2, "Contro": 3, "marker-symbol": "https://raw.githubusercontent.com/eheurard/wikibiodi/main/Mine.png"}}, {"type": "Feature", "geometry": {"type": "Point", "coordinates": [26.433835, -12.09119]}, "properties": {"longitude": 26.4338348876549, "latitude": -12.0911900609537, "Company Name": "FIRST QUANTUM MINERALS LTD", "ISIN": "CA3359341057", "Name": "Kansanshi", "Asset type": "Mine", "popup-text": "", "Comodity": "Copper;Gold", "Production": "146282;109617", "Unit": "t;oz", "Date": 2022.0, "Water": 3, "Biodiv": 3, "Social": 1, "Contro": 0, "marker-symbol": "https://raw.githubusercontent.com/eheurard/wikibiodi/main/Mine.png"}}, {"type": "Feature", "geometry": {"type": "Point", "coordinates": [26.040346, 63.661031]}, "properties": {"longitude": 26.0403456, "latitude": 63.6610305, "Company Name": "FIRST QUANTUM MINERALS LTD", "ISIN": "CA3359341058", "Name": "Pyh\u00e4salmi", "Asset type": "Mine", "popup-text": "", "Comodity": "Copper;Pyrite", "Production": "2362;341041", "Unit": "t;t", "Date": 2022.0, "Water": 2, "Biodiv": 1, "Social": 0, "Contro": 1, "marker-symbol": "https://raw.githubusercontent.com/eheurard/wikibiodi/main/Mine.png"}}, {"type": "Feature", "geometry": {"type": "Point", "coordinates": [120.401691, -33.644958]}, "properties": {"longitude": 120.401690705784, "latitude": -33.6449581486362, "Company Name": "FIRST QUANTUM MINERALS LTD", "ISIN": "CA3359341059", "Name": "Ravensthorpe", "Asset type": "Mine", "popup-text": "", "Comodity": "Nickel", "Production": "21;529", "Unit": "t", "Date": 2022.0, "Water": 3, "Biodiv": 1, "Social": 3, "Contro": 1, "marker-symbol": "https://raw.githubusercontent.com/eheurard/wikibiodi/main/Mine.png"}}, {"type": "Feature", "geometry": {"type": "Point", "coordinates": [25.301002, -12.281384]}, "properties": {"longitude": 25.3010025, "latitude": -12.2813844, "Company Name": "FIRST QUANTUM MINERALS LTD", "ISIN": "CA3359341060", "Name": "Sentinel", "Asset type": "Mine", "popup-text": "", "Comodity": "Copper", "Production": 242451, "Unit": "t", "Date": 2022.0, "Water": 2, "Biodiv": 1, "Social": 2, "Contro": 0, "marker-symbol": "https://raw.githubusercontent.com/eheurard/wikibiodi/main/Mine.png"}}, {"type": "Feature", "geometry": {"type": "Point", "coordinates": [-67.749557, -24.588904]}, "properties": {"longitude": -67.7495573315158, "latitude": -24.5889036715248, "Company Name": "FIRST QUANTUM MINERALS LTD", "ISIN": "CA3359341061", "Name": "Taca Taca", "Asset type": "Mine", "popup-text": "Mine project", "Comodity": "Other mine", "Production": "", "Unit": "", "Date": 2022.0, "Water": 0, "Biodiv": 2, "Social": 0, "Contro": 2, "marker-symbol": "https://raw.githubusercontent.com/eheurard/wikibiodi/main/Mine.png"}}]}
